<?xml version="1.0" ?><gpx xmlns="http://www.topografix.com/GPX/1/1" creator="GaiaGPS" version="1.1" xmlns:xsi="http://www.w3.org/2001/XMLSchema-instance" xsi:schemaLocation="http://www.topografix.com/GPX/1/1 http://www.topografix.com/GPX/1/1/gpx.xsd"><wpt lat="40.05565516490313" lon="-105.55221168801248"><time>2026-04-04T19:53:13Z</time><name>NR_LowerSouth</name></wpt><wpt lat="40.057679558786816" lon="-105.55280544154098"><time>2026-04-04T19:53:56Z</time><name>NR_UpperSouth</name></wpt><wpt lat="40.062938669172866" lon="-105.55236564632791"><time>2026-04-04T19:55:19Z</time><name>NR_LowerNorth</name></wpt><wpt lat="40.05801252593599" lon="-105.55325952262379"><time>2026-04-04T19:54:33Z</time><name>NR_UpperTop</name></wpt><wpt lat="40.06283083595861" lon="-105.54876378682492"><time>2026-04-04T19:55:50Z</time><name>NR_LowerTop</name></wpt><wpt lat="40.05901123189935" lon="-105.55416548684562"><time>2026-04-04T19:54:52Z</time><name>NR_UpperNorth</name></wpt><wpt lat="39.7872986528738" lon="-105.88258878245578"><time>2026-04-04T19:57:17Z</time><name>JP_WestNorth</name></wpt><wpt lat="39.78696149575086" lon="-105.88296774596088"><time>2026-04-04T19:56:47Z</time><name>JP_WestSouth</name></wpt><wpt lat="39.78667790496402" lon="-105.88090856266135"><time>2026-04-04T19:57:44Z</time><name>JP_EastNorth</name></wpt><wpt lat="39.78598407939472" lon="-105.8795321798548"><time>2026-04-04T19:58:09Z</time><name>JP_EastSouth</name></wpt><wpt lat="39.785570292652324" lon="-105.8772898247729"><time>2026-04-04T20:01:14Z</time><name>JP_EastTop</name></wpt><wpt lat="39.78589473055237" lon="-105.87881301994197"><time>2026-04-04T20:02:20Z</time><name>JP_WestTop</name></wpt><wpt lat="39.595538294454826" lon="-105.74708915232006"><time>2026-04-04T20:02:54Z</time><name>GP_UpperSouth</name></wpt><wpt lat="39.59760743145003" lon="-105.74312340095443"><time>2026-04-04T20:03:15Z</time><name>GP_UpperNorth</name></wpt><wpt lat="39.58479042208742" lon="-105.73742074323206"><time>2026-04-04T20:04:18Z</time><name>GP_LowerSouth</name></wpt><wpt lat="39.58481548351838" lon="-105.73544296731366"><time>2026-04-04T20:04:57Z</time><name>GP_LowerNorth</name></wpt><wpt lat="39.58476478918979" lon="-105.73672436924566"><time>2026-04-04T20:04:28Z</time><name>GP_LowerTop</name></wpt><wpt lat="39.59736206411165" lon="-105.7419309493685"><time>2026-04-04T20:03:27Z</time><name>GP_UpperTop</name></wpt></gpx>